City_ID,City,Lat,Lng,Max Temp,Humidity,Cloudiness,Wind Speed,Country,Date
0,helena,46.5927,46.5927,47.62,49,0,10.36,US,1681586906
1,leningradskiy,69.3833,69.3833,4.73,86,10,4.16,RU,1681587093
2,khatanga,71.9667,71.9667,0.43,98,98,6.87,RU,1681587093
3,sao filipe,14.8961,14.8961,76.96,72,0,6.44,CV,1681587094
4,castro,-24.7911,-24.7911,68.07,82,69,4.63,BR,1681587094
5,lebu,-37.6167,-37.6167,56.75,70,0,18.21,CL,1681587094
6,busselton,-33.65,-33.65,62.44,80,99,8.3,AU,1681587042
7,port alfred,-33.5906,-33.5906,57.18,89,61,1.01,ZA,1681587094
8,aden,12.7794,12.7794,82.69,77,10,14.05,YE,1681587042
9,rikitea,-23.1203,-23.1203,78.26,67,0,6.73,PF,1681587009
10,sayat,38.7839,38.7839,60.67,29,0,6.87,TM,1681587095
11,longyearbyen,78.2186,78.2186,31.84,93,100,3.44,SJ,1681587095
12,mataura,-46.1927,-46.1927,52.48,87,97,2.82,NZ,1681587095
13,yar-sale,66.8333,66.8333,6.19,85,94,24.34,RU,1681587095
14,mahebourg,-20.4081,-20.4081,77.29,88,40,3.44,MU,1681587095
15,nome,64.5011,64.5011,11.16,72,0,0.0,US,1681587075
16,codrington,-38.2667,-38.2667,54.43,80,99,14.0,AU,1681587096
17,waipawa,-41.4122,-41.4122,51.3,87,18,6.96,NZ,1681587096
18,mar del plata,-38.0023,-38.0023,67.08,53,75,5.75,AR,1681587029
19,buala,-8.145,-8.145,78.64,83,98,5.88,SB,1681587096
20,ushuaia,-54.8,-54.8,46.02,70,0,3.44,AR,1681587077
21,albany,42.6001,42.6001,82.89,44,100,5.01,US,1681586846
22,nikolskoye,59.7035,59.7035,42.8,55,100,6.04,RU,1681587097
23,yellowknife,62.456,62.456,39.72,56,75,18.41,CA,1681587097
24,punta arenas,-53.15,-53.15,46.51,81,100,11.5,CL,1681587014
25,barrow,71.2906,71.2906,-7.58,77,0,9.22,US,1681587097
26,kalabagh,32.965,32.965,86.27,23,100,6.42,PK,1681587097
27,tessalit,20.1986,20.1986,86.83,9,0,9.26,ML,1681587097
28,tura,25.5198,25.5198,78.17,27,99,4.63,IN,1681587098
29,bendigo,-36.7667,-36.7667,52.86,71,100,6.4,AU,1681587098
30,atuona,-9.8,-9.8,81.01,74,7,13.91,PF,1681587098
31,jamestown,42.097,42.097,76.64,35,0,3.44,US,1681587098
32,karratha,-20.7377,-20.7377,70.88,29,87,17.47,AU,1681587099
33,pisco,-13.7,-13.7,82.45,57,0,11.5,PE,1681587099
34,ouadda,8.0777,8.0777,75.27,70,100,3.87,CF,1681587099
35,quelimane,-17.8786,-17.8786,73.11,78,9,5.53,MZ,1681587099
36,puerto ayora,-0.7393,-0.7393,89.56,87,78,8.99,EC,1681587099
37,hilo,19.7297,19.7297,80.28,69,20,4.61,US,1681587099
38,cape town,-33.9258,-33.9258,62.91,74,0,17.0,ZA,1681587072
39,butaritari,3.0707,3.0707,82.09,75,84,13.8,KI,1681587087
40,haines junction,60.7522,60.7522,42.75,36,100,5.75,CA,1681587100
41,ribeira grande,38.5167,38.5167,64.8,94,75,17.0,PT,1681587100
42,cherskiy,68.75,68.75,3.97,88,45,3.65,RU,1681587100
43,bambous virieux,-20.3428,-20.3428,77.25,88,40,3.44,MU,1681587094
44,sibolga,1.7427,1.7427,75.43,88,100,3.56,ID,1681587100
45,ascension,30.2169,30.2169,66.2,100,100,0.0,US,1681587101
46,saint-philippe,-21.3585,-21.3585,76.59,85,33,4.52,RE,1681587032
47,hermanus,-34.4187,-34.4187,54.81,75,3,8.12,ZA,1681587101
48,bredasdorp,-34.5322,-34.5322,56.82,81,5,3.47,ZA,1681587025
49,thompson,55.7435,55.7435,39.36,35,20,8.05,CA,1681587101
50,klaksvik,62.2266,62.2266,45.52,86,12,12.86,FO,1681587102
51,chuy,-33.6971,-33.6971,61.7,63,92,7.7,UY,1681587102
52,goderich,43.7501,43.7501,71.92,37,40,4.61,CA,1681587102
53,alta,69.9689,69.9689,33.06,61,8,5.75,NO,1681587102
54,rjukan,59.8789,59.8789,41.04,99,100,2.01,NO,1681587102
55,brae,60.3964,60.3964,44.62,85,6,10.29,GB,1681587102
56,puerto plata,19.7934,19.7934,91.45,66,40,18.41,DO,1681586855
57,whitehorse,60.7161,60.7161,38.17,44,100,15.01,CA,1681587103
58,havre-saint-pierre,50.2334,50.2334,37.76,56,75,10.36,CA,1681587103
59,kloulklubed,7.0419,7.0419,77.5,70,47,5.48,PW,1681587095
60,novikovo,51.1537,51.1537,38.46,62,100,9.15,RU,1681587103
61,roald,62.5833,62.5833,50.76,93,0,3.44,NO,1681587104
62,san quintin,30.4833,30.4833,63.63,62,0,11.9,MX,1681587101
63,champerico,14.3,14.3,97.34,58,23,15.21,GT,1681587104
64,bluff,-46.6,-46.6,52.81,87,90,6.35,NZ,1681587104
65,mahanoro,-19.9,-19.9,73.96,86,9,2.39,MG,1681587104
66,mount gambier,-37.8333,-37.8333,50.76,84,18,8.34,AU,1681587104
67,carutapera,-1.195,-1.195,82.35,76,17,6.82,BR,1681587105
68,presidencia roque saenz pena,-26.7852,-26.7852,79.12,53,76,5.84,AR,1681587105
69,port elizabeth,-33.918,-33.918,61.09,88,0,6.91,ZA,1681587105
70,hithadhoo,-0.6,-0.6,83.88,69,100,9.1,MV,1681587105
71,minot,48.2325,48.2325,47.01,49,75,24.16,US,1681587080
72,dingle,10.9995,10.9995,77.77,84,77,1.52,PH,1681587105
73,kaitangata,-46.2817,-46.2817,49.93,87,13,3.36,NZ,1681587106
74,upernavik,72.7868,72.7868,11.25,94,95,9.42,GL,1681587106
75,torbay,47.6666,47.6666,43.75,71,20,27.63,CA,1681587106
76,raudeberg,61.9875,61.9875,43.95,65,80,2.3,NO,1681587077
77,gumdag,39.2061,39.2061,60.64,44,0,11.88,TM,1681587107
78,cidreira,-30.1811,-30.1811,67.8,86,100,13.42,BR,1681587107
79,marzuq,14.4,14.4,74.77,60,31,6.51,YE,1681587107
80,zhaozhou,45.6833,45.6833,40.08,51,97,8.3,CN,1681587107
81,victoria,22.2855,22.2855,79.2,80,90,2.21,HK,1681587107
82,sungaipenuh,-2.0833,-2.0833,63.86,97,99,0.98,ID,1681587108
83,porkhov,57.765,57.765,38.66,58,100,7.52,RU,1681587108
84,namibe,-15.1961,-15.1961,75.65,73,61,4.16,AO,1681587108
85,swan hill,-35.3378,-35.3378,53.62,83,82,13.02,AU,1681587108
86,kodiak,57.79,57.79,27.91,74,100,20.71,US,1681587109
87,sangre grande,10.5835,10.5835,87.93,95,100,12.06,TT,1681587109
88,kununurra,-15.7667,-15.7667,76.98,100,100,0.0,AU,1681587109
89,itacoatiara,-3.1431,-3.1431,86.49,67,79,3.44,BR,1681587109
90,nabire,-3.3667,-3.3667,75.65,81,100,3.2,ID,1681587109
91,provideniya,64.3833,64.3833,10.74,67,100,3.76,RU,1681587022
92,vestmannaeyjar,63.4427,63.4427,45.48,77,100,24.07,IS,1681587110
93,barra do corda,-5.5,-5.5,83.34,86,100,1.74,BR,1681587110
94,forbes,-33.3833,-33.3833,63.91,78,100,12.15,AU,1681587110
95,bowen,-20.0167,-20.0167,78.1,78,99,10.87,AU,1681587110
96,bukama,-9.2,-9.2,70.38,96,100,2.01,CD,1681587110
97,bereda,43.2686,43.2686,58.57,89,28,3.04,ES,1681587111
98,sioux lookout,50.1001,50.1001,28.47,93,100,8.05,CA,1681587111
99,saskylakh,71.9167,71.9167,-1.7,100,76,3.36,RU,1681587111
100,naze,28.3667,28.3667,65.32,76,43,10.42,JP,1681587111
101,yumen,40.2833,40.2833,58.98,15,100,5.59,CN,1681587111
102,te anau,-45.4167,-45.4167,48.56,81,100,0.76,NZ,1681587111
103,lompoc,34.6391,34.6391,69.69,73,0,8.05,US,1681587111
104,new norfolk,-42.7826,-42.7826,55.92,89,100,1.01,AU,1681587111
105,qaanaaq,77.484,77.484,3.29,96,12,2.84,GL,1681587112
106,puerto escondido,15.85,15.85,86.83,66,40,17.27,MX,1681586879
107,avarua,-21.2078,-21.2078,78.85,69,20,3.44,CK,1681586965
108,lusaka,-15.4067,-15.4067,62.85,77,0,5.75,ZM,1681586903
109,avera,33.194,33.194,80.65,43,28,8.5,US,1681587112
110,lagoa,39.05,39.05,62.64,85,26,17.69,PT,1681587112
111,serenje,-13.2325,-13.2325,61.92,94,100,10.78,ZM,1681587112
112,sisimiut,66.9395,66.9395,29.61,80,5,10.36,GL,1681587112
113,kasongo-lunda,-6.4667,-6.4667,72.09,99,100,2.21,CD,1681587113
114,paamiut,61.994,61.994,33.19,71,8,11.52,GL,1681587105
115,aykhal,66.0,66.0,24.62,97,100,22.39,RU,1681587099
116,nueve de julio,-35.4444,-35.4444,70.97,38,65,1.99,AR,1681587113
117,kurchum,48.5722,48.5722,46.63,94,100,3.18,KZ,1681587113
118,pochutla,15.7432,15.7432,89.82,37,0,12.24,MX,1681587114
119,sola,-13.8833,-13.8833,74.37,93,100,14.07,VU,1681587114
120,oum hadjer,13.2954,13.2954,92.46,12,100,10.92,TD,1681587114
121,fortuna,40.5982,40.5982,56.93,70,99,1.99,US,1681587114
122,saldanha,-33.0117,-33.0117,59.05,77,0,11.74,ZA,1681587114
123,ferreira do alentejo,38.05,38.05,74.79,31,0,9.22,PT,1681587114
124,dibrugarh,27.4833,27.4833,76.42,48,100,4.16,IN,1681587114
125,bambanglipuro,-7.95,-7.95,75.83,90,90,2.68,ID,1681587114
126,busayra,30.7376,30.7376,61.84,43,0,2.26,JO,1681587115
127,tasiilaq,65.6145,65.6145,37.56,89,100,9.24,GL,1681587115
128,niquero,20.0431,20.0431,82.9,70,95,6.08,CU,1681587115
129,biankouma,7.7391,7.7391,78.39,61,100,5.12,CI,1681587116
130,norman wells,65.282,65.282,12.24,85,100,4.61,CA,1681587116
131,rapid valley,44.0625,44.0625,46.63,42,100,31.07,US,1681587116
132,kapaa,22.0752,22.0752,77.18,67,0,16.11,US,1681587116
133,iqaluit,63.7506,63.7506,20.93,79,100,25.32,CA,1681587116
134,opatija,45.3392,45.3392,52.18,88,99,1.5,HR,1681586836
135,mahenge,-8.6833,-8.6833,62.8,95,67,1.99,TZ,1681587116
136,buta,2.7858,2.7858,68.74,98,100,4.94,CD,1681587116
137,east london,-33.0153,-33.0153,62.49,70,90,7.31,ZA,1681587117
138,ballina,-28.8667,-28.8667,63.79,85,100,7.7,AU,1681587117
139,turbat,26.0023,26.0023,84.15,51,0,6.13,PK,1681587117
140,logan,41.7355,41.7355,48.04,59,0,5.75,US,1681586828
141,placido de castro,-10.3353,-10.3353,80.33,95,100,1.88,BR,1681587117
142,marovoay,-16.1,-16.1,75.92,90,1,3.4,MG,1681587117
143,zeya,53.75,53.75,30.69,82,99,4.07,RU,1681587117
144,kavieng,-2.5744,-2.5744,81.37,78,100,3.65,PG,1681587117
145,luderitz,-26.6481,-26.6481,71.06,39,0,8.1,NA,1681587118
146,geraldton,-28.7667,-28.7667,50.41,93,0,5.75,AU,1681586870
147,rio branco,-9.9747,-9.9747,88.41,70,40,3.44,BR,1681587118
148,atbasar,51.8,51.8,10.98,91,100,4.92,KZ,1681587118
149,fomboni,-12.28,-12.28,82.22,73,40,3.98,KM,1681587118
150,borzya,50.3833,50.3833,33.37,68,39,7.05,RU,1681587118
151,kerema,-7.9631,-7.9631,75.7,90,100,7.47,PG,1681587118
152,souillac,-20.5167,-20.5167,77.38,88,40,3.44,MU,1681587119
153,vagur,61.4732,61.4732,45.43,87,100,15.41,FO,1681587119
154,kungurtug,50.5994,50.5994,31.53,98,100,3.27,RU,1681587119
155,nerchinsk,51.9833,51.9833,33.35,48,100,6.22,RU,1681587119
156,ponta do sol,32.6667,32.6667,68.72,75,0,5.57,PT,1681587119
157,carnarvon,-24.8667,-24.8667,65.84,39,3,16.17,AU,1681587055
158,nieuw amsterdam,5.8833,5.8833,82.56,74,40,4.61,SR,1681587119
159,nanortalik,60.1432,60.1432,36.77,76,100,5.53,GL,1681587031
160,usinsk,65.9939,65.9939,1.78,94,22,6.24,RU,1681587120
161,alta gracia,-31.6529,-31.6529,66.88,52,100,4.85,AR,1681587120
162,sobolevo,54.4299,54.4299,39.04,50,100,12.75,RU,1681587120
163,barbastro,42.0356,42.0356,57.38,44,81,9.06,ES,1681587120
164,hasaki,35.7333,35.7333,57.22,92,100,9.13,JP,1681587120
165,komatipoort,-25.4332,-25.4332,68.05,88,71,2.91,ZA,1681587121
166,farah,32.5,32.5,71.53,20,100,3.15,AF,1681587121
167,tateyama,34.9833,34.9833,63.12,98,100,14.99,JP,1681587121
168,tuy hoa,13.0833,13.0833,77.86,90,100,1.61,VN,1681587122
169,praia da vitoria,38.7333,38.7333,66.45,82,75,23.58,PT,1681587122
170,corinto,37.9407,37.9407,60.89,72,93,5.41,GR,1681587122
171,la ronge,55.1001,55.1001,44.82,52,75,2.3,CA,1681587113
172,tautira,-17.7333,-17.7333,80.22,78,21,13.51,PF,1681587123
173,taltal,-25.4,-25.4,69.49,69,39,8.41,CL,1681587123
174,mbekenyera,-10.0,-10.0,69.89,97,63,3.27,TZ,1681587123
175,talnakh,69.4865,69.4865,-23.55,85,2,3.62,RU,1681587124
176,tunceli,39.1083,39.1083,53.65,73,26,2.08,TR,1681587124
177,christchurch,-43.5333,-43.5333,58.91,85,75,9.22,NZ,1681586958
178,guymon,36.6828,36.6828,56.23,27,95,23.96,US,1681587124
179,faanui,-16.4833,-16.4833,81.1,72,51,4.36,PF,1681587124
180,ulladulla,-35.35,-35.35,65.77,63,100,7.99,AU,1681587124
181,dunedin,-45.8742,-45.8742,53.8,81,9,5.99,NZ,1681587117
182,clyde river,70.4692,70.4692,12.43,79,100,23.02,CA,1681587125
183,touros,-5.1989,-5.1989,79.27,85,100,12.08,BR,1681587125
184,vaini,-21.2,-21.2,77.16,88,75,11.5,TO,1681587125
185,cayenne,4.9333,4.9333,82.44,78,75,11.5,GF,1681587011
186,hobart,-42.8794,-42.8794,56.26,95,100,10.36,AU,1681586844
187,bom jesus da lapa,-13.255,-13.255,96.91,23,68,7.09,BR,1681586939
188,lavrentiya,65.5833,65.5833,3.6,76,83,1.25,RU,1681587126
189,novobirilyussy,56.9514,56.9514,8.74,96,26,2.37,RU,1681587126
190,chokurdakh,70.6333,70.6333,5.58,96,87,9.6,RU,1681587050
191,sernovodsk,43.3117,43.3117,45.59,84,100,6.91,RU,1681587127
192,labuhan,-6.8844,-6.8844,76.35,90,64,10.02,ID,1681587083
193,verkhoyansk,67.5447,67.5447,11.88,97,100,1.21,RU,1681587127
194,ahero,-0.1746,-0.1746,71.58,88,89,3.04,KE,1681587127
195,dhidhdhoo,6.8833,6.8833,82.8,73,21,4.63,MV,1681587128
196,bethel,41.3712,41.3712,79.03,88,100,8.05,US,1681587128
197,marihatag,8.7936,8.7936,77.99,88,34,4.34,PH,1681587128
198,nishihara,26.1842,26.1842,69.08,81,75,13.8,JP,1681587128
199,lorengau,-2.0226,-2.0226,81.91,80,96,12.17,PG,1681587128
200,laguna,38.421,38.421,69.17,57,0,6.91,US,1681586967
201,liuzhou,24.3126,24.3126,67.84,73,9,1.3,CN,1681587129
202,ola,59.5833,59.5833,18.52,80,97,11.18,RU,1681587129
203,egvekinot,66.3167,66.3167,0.28,84,100,0.27,RU,1681587130
204,tuktoyaktuk,69.4541,69.4541,3.2,85,100,9.22,CA,1681587130
205,sitka,57.0531,57.0531,44.49,65,100,18.41,US,1681587130
206,hamilton,39.1834,39.1834,80.78,50,75,10.36,US,1681587131
207,ixtapa,20.7,20.7,79.83,50,20,10.36,MX,1681587131
208,bandundu,-3.3167,-3.3167,78.6,75,66,4.38,CD,1681587131
209,burgos,42.3394,42.3394,48.61,76,100,16.11,ES,1681587131
210,sambava,-14.2667,-14.2667,78.01,85,38,9.98,MG,1681587131
211,dikson,73.5069,73.5069,-0.9,100,100,9.64,RU,1681587131
212,muriti,-1.9833,-1.9833,73.92,74,24,9.91,TZ,1681587132
213,fort nelson,58.8053,58.8053,45.95,40,75,5.01,CA,1681587132
214,broome,42.2506,42.2506,77.77,51,40,6.91,US,1681587132
215,kavaratti,10.5669,10.5669,83.3,77,93,5.3,IN,1681587132
216,baleno,12.4739,12.4739,80.82,80,21,2.84,PH,1681587136
217,hovd,48.0056,48.0056,52.75,41,45,11.79,MN,1681587136
218,amga,60.8953,60.8953,16.16,93,53,5.14,RU,1681587136
219,aviles,43.5547,43.5547,59.38,85,100,3.44,ES,1681587136
220,poya,-21.35,-21.35,72.7,95,100,4.07,NC,1681587137
221,grand-santi,4.25,4.25,79.56,95,100,3.36,GF,1681587137
222,manokwari,-0.8667,-0.8667,78.53,74,100,3.74,ID,1681587137
223,georgetown,5.4112,5.4112,85.95,80,20,9.22,MY,1681587137
224,guerrero negro,27.9769,27.9769,65.14,53,0,13.96,MX,1681587006
225,koluszki,51.7387,51.7387,47.89,96,83,11.54,PL,1681587138
226,sampit,-2.5333,-2.5333,75.02,97,100,1.63,ID,1681587138
227,coquimbo,-29.9533,-29.9533,67.73,63,0,14.97,CL,1681587138
228,arlit,18.7369,18.7369,90.09,11,94,8.03,NE,1681587138
229,fukue,32.6881,32.6881,58.73,76,66,9.95,JP,1681587138
230,abeche,13.8292,13.8292,90.14,18,78,7.78,TD,1681587013
231,acapulco,16.8634,16.8634,85.82,58,75,12.66,MX,1681587099
232,zyryanskoye,56.8306,56.8306,12.78,92,31,2.01,RU,1681587139
233,baijiantan,45.6333,45.6333,64.38,48,100,17.49,CN,1681587139
234,corner brook,48.9667,48.9667,44.76,78,49,7.72,CA,1681587140
235,yakeshi,49.2833,49.2833,34.18,49,98,4.07,CN,1681587140
236,saint george,37.1041,37.1041,70.43,17,0,3.44,US,1681586938
237,rawson,-43.3002,-43.3002,57.04,49,11,5.5,AR,1681587059
238,vardo,70.3705,70.3705,30.18,59,3,0.0,NO,1681587141
239,asyut,27.181,27.181,75.38,20,0,8.86,EG,1681587141
240,saint-paul,-21.0096,-21.0096,77.11,94,4,1.01,RE,1681587141
241,conceicao do araguaia,-8.2578,-8.2578,87.39,68,32,2.42,BR,1681587141
242,wilmington,34.2257,34.2257,81.91,50,100,9.22,US,1681586803
243,boende,-0.2167,-0.2167,73.87,88,74,2.42,CD,1681587142
244,kahului,20.8947,20.8947,77.97,78,40,11.5,US,1681586656
245,abu samrah,35.3029,35.3029,63.75,38,60,8.68,SY,1681587142
246,san rafael,-34.6177,-34.6177,54.63,80,99,5.01,AR,1681587042
247,ostrovnoy,68.0531,68.0531,22.68,84,5,9.57,RU,1681587143
248,pedernales,18.0384,18.0384,84.43,62,85,5.3,DO,1681587143
249,pala,9.3642,9.3642,94.1,24,100,2.35,TD,1681587143
250,medicine hat,50.0501,50.0501,54.21,33,20,16.11,CA,1681586822
251,airai,-8.9266,-8.9266,60.39,93,100,0.65,TL,1681587144
252,husavik,66.0449,66.0449,37.31,82,65,4.16,IS,1681587144
253,gazli,40.1333,40.1333,67.05,23,84,15.9,UZ,1681587144
254,maldonado,-34.6667,-34.6667,61.99,56,36,10.47,UY,1681587144
255,tiksi,71.6872,71.6872,-1.5,100,100,6.06,RU,1681587144
256,damphu,27.0721,27.0721,66.18,52,94,5.61,BT,1681587145
257,krasnyy oktyabr,56.1167,56.1167,34.95,62,99,5.01,RU,1681587145
258,mehamn,71.0357,71.0357,31.91,74,7,5.75,NO,1681587145
259,gazojak,41.1875,41.1875,62.58,31,53,17.69,TM,1681587145
260,acajutla,13.5928,13.5928,88.84,58,18,9.93,SV,1681587145
261,biscarrosse,44.3945,44.3945,51.75,66,0,4.61,FR,1681587145
262,thessalon,46.2501,46.2501,49.98,75,100,6.22,CA,1681587032
263,nelson bay,-32.7167,-32.7167,68.09,79,99,11.01,AU,1681587146
264,pokrovskoye,47.4157,47.4157,41.97,83,23,9.01,RU,1681587146
265,merauke,-8.4667,-8.4667,76.46,90,100,5.01,ID,1681587146
266,peniche,39.3558,39.3558,62.29,88,46,19.91,PT,1681587024
267,port-gentil,-0.7193,-0.7193,82.36,83,40,5.75,GA,1681587146
268,arraial do cabo,-22.9661,-22.9661,78.76,78,40,12.66,BR,1681587147
269,tucuman,-26.8241,-26.8241,59.0,94,100,6.91,AR,1681587003
270,romitan,39.9343,39.9343,62.55,51,0,4.61,UZ,1681587147
271,banda aceh,5.5577,5.5577,80.11,82,100,8.41,ID,1681587147
272,severo-kurilsk,50.6789,50.6789,29.46,83,36,6.29,RU,1681587148
273,yamada,39.4667,39.4667,51.08,97,100,5.64,JP,1681587148
274,krasnyy kut,50.95,50.95,36.41,45,0,9.93,RU,1681587148
275,the valley,18.217,18.217,85.86,74,40,13.8,AI,1681587114
276,beidao,34.5686,34.5686,57.94,81,25,3.11,CN,1681587148
277,asau,46.4333,46.4333,49.28,71,75,3.98,RO,1681587127
278,iglino,54.8324,54.8324,26.69,48,5,5.64,RU,1681587149
279,katsuura,35.1333,35.1333,62.53,96,100,16.33,JP,1681587149
280,bella union,-30.2752,-30.2752,75.65,55,4,8.19,UY,1681587149
281,donskoye,45.4552,45.4552,39.33,80,100,11.36,RU,1681587149
282,karasjok,69.4719,69.4719,26.31,93,17,8.41,NO,1681587149
283,novomyshastovskaya,45.1991,45.1991,48.18,80,69,13.56,RU,1681587150
284,boyolangu,-8.1181,-8.1181,74.16,92,93,2.77,ID,1681587150
285,pimentel,-6.8367,-6.8367,84.49,61,75,11.5,PE,1681587150
286,uvarovka,55.5278,55.5278,34.75,52,100,6.22,RU,1681587150
287,narsaq,60.9167,60.9167,50.22,71,98,7.2,GL,1681587150
288,wewak,-3.5534,-3.5534,78.37,89,100,13.2,PG,1681587058
289,makakilo city,21.3469,21.3469,77.32,62,20,9.22,US,1681587151
290,waddan,29.1614,29.1614,70.77,29,100,9.28,LY,1681587151
291,berezovyy,51.6667,51.6667,24.87,87,23,1.92,RU,1681587151
292,scarborough,54.2797,54.2797,48.9,84,28,5.01,GB,1681587151
293,taclobo,12.3074,12.3074,82.54,71,20,5.7,PH,1681587151
294,ippy,6.2679,6.2679,73.13,84,79,5.26,CF,1681587152
295,port blair,11.6667,11.6667,80.51,76,98,6.15,IN,1681586938
296,pangkalanbuun,-2.6833,-2.6833,74.32,99,100,2.51,ID,1681587152
297,lagawe,16.8,16.8,71.47,94,98,1.72,PH,1681587152
298,jalu,29.0331,29.0331,70.84,34,1,17.29,LY,1681587152
299,hervey bay,-25.2986,-25.2986,72.36,76,92,7.83,AU,1681587152
300,nador,35.174,35.174,70.05,43,0,5.75,MA,1681587153
301,constitucion,-35.3333,-35.3333,61.56,63,1,14.03,CL,1681587153
302,ndele,8.4109,8.4109,80.74,53,87,4.41,CF,1681587153
303,saint-leu,-21.15,-21.15,76.06,94,2,5.7,RE,1681587153
304,natal,-5.795,-5.795,84.42,65,75,11.5,BR,1681586868
305,ahipara,-35.1667,-35.1667,64.92,77,100,17.0,NZ,1681587153
306,grand gaube,-20.0064,-20.0064,77.4,81,98,3.0,MU,1681587154
307,berlevag,70.8578,70.8578,35.4,64,7,2.3,NO,1681587154
308,horqueta,-23.3428,-23.3428,77.95,74,53,2.08,PY,1681587154
309,pevek,69.7008,69.7008,0.63,92,99,6.62,RU,1681587154
310,parauna,-16.9478,-16.9478,82.49,62,61,1.95,BR,1681587154
311,okhotsk,59.3833,59.3833,18.18,97,99,7.05,RU,1681587024
312,hualmay,-11.0964,-11.0964,78.33,75,99,8.72,PE,1681587154
313,piacabucu,-10.4056,-10.4056,81.12,70,4,8.95,BR,1681587155
314,tignere,7.3667,7.3667,75.43,53,68,2.8,CM,1681587155
315,kiunga,-6.1219,-6.1219,72.52,100,100,2.89,PG,1681587155
316,quimper,48.0,48.0,52.36,81,0,9.22,FR,1681586998
317,necochea,-38.5473,-38.5473,57.7,52,99,4.72,AR,1681587155
318,sompeta,18.9333,18.9333,84.92,67,100,10.76,IN,1681587155
319,rio gallegos,-51.6226,-51.6226,53.65,37,75,21.85,AR,1681587155
320,shizunai,42.3339,42.3339,42.39,85,100,10.56,JP,1681587156
321,moree,-29.4667,-29.4667,66.94,70,100,17.98,AU,1681587156
322,bonthe,7.5264,7.5264,82.15,82,55,8.66,SL,1681587156
323,ghanzi,-21.5667,-21.5667,73.27,27,27,8.12,BW,1681587156
324,itarema,-2.9248,-2.9248,79.99,87,99,8.99,BR,1681587156
325,amazar,53.858,53.858,19.89,96,27,2.95,RU,1681587157
326,muzhi,65.3667,65.3667,5.45,88,5,7.25,RU,1681587157
327,aksarka,66.5606,66.5606,-6.65,100,31,4.99,RU,1681587157
328,yerofey pavlovich,53.9667,53.9667,23.94,95,69,3.69,RU,1681587157
329,port stanley,-51.7,-51.7,44.89,77,56,4.36,FK,1681587157
330,nova olimpia,-14.7972,-14.7972,82.92,84,98,1.9,BR,1681587157
331,bani walid,31.7566,31.7566,60.62,43,6,11.79,LY,1681587157
332,twin falls,42.3505,42.3505,53.94,24,0,4.61,US,1681587139
333,gurupa,-1.405,-1.405,82.71,84,35,4.0,BR,1681587158
334,antalaha,-14.9003,-14.9003,75.13,90,22,5.5,MG,1681587158
335,isangel,-19.55,-19.55,80.17,83,100,15.23,VU,1681587158
336,ilulissat,69.2167,69.2167,32.02,69,20,4.61,GL,1681587159
337,zwedru,6.0667,6.0667,75.85,85,100,5.06,LR,1681587159
338,gizo,-8.103,-8.103,82.54,66,55,11.3,SB,1681587159
339,caravelas,-17.7125,-17.7125,79.84,76,7,7.49,BR,1681587159
340,sain alto,23.5833,23.5833,75.52,14,6,17.02,MX,1681587159
341,ambulu,-8.345,-8.345,75.29,91,61,2.8,ID,1681587159
342,chapais,49.7834,49.7834,58.78,78,59,5.17,CA,1681587106
343,seddon,-37.8068,-37.8068,56.75,93,75,5.75,AU,1681587160
344,koumac,-20.5667,-20.5667,76.3,84,100,9.44,NC,1681587160
345,romans-sur-isere,45.0464,45.0464,49.93,86,100,13.22,FR,1681587034
346,los llanos de aridane,28.6585,28.6585,64.15,80,40,10.36,ES,1681587160
347,kita,13.0349,13.0349,94.24,11,0,4.63,ML,1681587160
348,yeppoon,-23.1333,-23.1333,60.58,70,59,3.83,AU,1681587160
349,college,64.8569,64.8569,29.8,56,20,5.75,US,1681587161
350,vrangel,42.7297,42.7297,37.83,87,100,5.64,RU,1681587161
351,banisilan,7.4908,7.4908,72.91,89,47,3.11,PH,1681587161
352,xiongzhou,25.1167,25.1167,65.79,93,0,2.75,CN,1681587161
353,sorland,67.667,67.667,44.46,86,100,8.23,NO,1681587161
354,waterfoot,53.6929,53.6929,51.51,77,100,2.75,GB,1681587161
355,shipunovo,52.1582,52.1582,22.44,93,100,9.1,RU,1681587162
356,nemuro,43.3236,43.3236,36.57,97,100,23.31,JP,1681587162
357,villa carlos paz,-31.4241,-31.4241,65.39,41,100,3.0,AR,1681587162
358,penzance,50.1186,50.1186,52.77,76,100,8.1,GB,1681587162
359,port hardy,50.6996,50.6996,44.78,93,100,8.05,CA,1681587090
360,adiake,5.2863,5.2863,80.11,84,65,5.64,CI,1681587162
361,weston,26.1004,26.1004,91.99,61,0,11.5,US,1681586863
362,jega,12.2175,12.2175,91.69,15,100,4.07,NG,1681587163
363,sur,22.5667,22.5667,84.83,57,2,2.71,OM,1681587163
364,tahta,26.7693,26.7693,77.07,18,0,6.82,EG,1681587163
365,shira,54.4911,54.4911,18.95,57,100,4.32,RU,1681587163
366,vizinga,61.0749,61.0749,27.97,92,96,5.55,RU,1681587163
367,bukachacha,52.9833,52.9833,23.07,75,89,3.71,RU,1681587164
368,qaqortoq,60.7167,60.7167,39.11,68,100,6.85,GL,1681587164
369,kiama,-34.6833,-34.6833,67.57,70,100,5.99,AU,1681587111
370,watsa,3.0372,3.0372,65.17,98,80,2.77,CD,1681587164
371,aksu,41.1231,41.1231,66.6,17,14,1.86,CN,1681587164
372,salalah,17.0151,17.0151,82.02,68,0,3.71,OM,1681587097
373,siniscola,40.5719,40.5719,58.55,56,1,15.08,IT,1681587165
374,marmande,44.5,44.5,53.91,79,40,8.84,FR,1681587165
375,tombouctou,20.0,20.0,84.99,7,0,10.8,ML,1681587165
376,gucheng,35.9115,35.9115,60.75,22,58,1.72,CN,1681587165
377,tilichiki,60.4667,60.4667,8.29,94,89,8.32,RU,1681587165
378,muros,42.7762,42.7762,64.17,86,0,8.21,ES,1681587165
379,tortoli,39.9256,39.9256,57.02,51,75,16.11,IT,1681587166
380,aswan,24.0934,24.0934,83.5,16,0,9.22,EG,1681587166
381,hay river,60.8156,60.8156,48.18,46,20,9.22,CA,1681587166
382,shingu,33.7333,33.7333,57.52,87,87,6.33,JP,1681587145
383,meulaboh,4.1363,4.1363,75.85,91,91,3.6,ID,1681587166
384,bodaybo,57.8506,57.8506,21.88,96,100,2.82,RU,1681587166
385,westport,41.1415,41.1415,73.42,72,38,8.05,US,1681587032
386,capitan bado,-23.2667,-23.2667,75.11,80,85,2.86,PY,1681587166
387,darnah,32.767,32.767,60.19,70,100,12.93,LY,1681587167
388,hue,16.4667,16.4667,77.11,94,75,4.61,VN,1681587167
389,jaciara,-15.9653,-15.9653,82.69,75,78,3.2,BR,1681587167
390,maningrida,-12.0667,-12.0667,75.69,94,90,6.17,AU,1681587167
391,shubarkuduk,49.1447,49.1447,25.27,94,100,25.21,KZ,1681587167
392,nioro,13.35,13.35,87.51,42,47,15.79,GM,1681587167
393,bengkulu,-3.8004,-3.8004,75.6,91,100,4.72,ID,1681587168
394,gombe,10.2897,10.2897,93.02,18,97,4.85,NG,1681587168
395,salmas,38.1973,38.1973,50.54,57,56,1.95,IR,1681587168
396,nha trang,12.25,12.25,82.4,90,100,1.77,VN,1681587168
397,timbiqui,2.7717,2.7717,80.06,89,100,5.77,CO,1681587168
398,yichang,30.7144,30.7144,65.84,68,2,5.61,CN,1681587168
399,ojinaga,29.5667,29.5667,84.58,21,0,11.5,MX,1681587169
400,milagres,-7.3133,-7.3133,90.37,52,100,2.86,BR,1681587169
401,say,13.1007,13.1007,92.77,16,100,3.49,NE,1681587169
402,vatne,62.5667,62.5667,46.44,70,100,3.8,NO,1681587169
403,kruisfontein,-34.0033,-34.0033,53.11,71,7,3.24,ZA,1681587169
404,isla vista,34.4133,34.4133,69.98,69,0,6.91,US,1681587170
405,port lincoln,-34.7333,-34.7333,57.92,55,100,14.5,AU,1681587170
406,rocha,-34.4833,-34.4833,60.93,58,12,9.55,UY,1681587037
407,espanola,35.9911,35.9911,61.72,13,0,18.25,US,1681587170
408,sept-iles,50.2001,50.2001,39.06,55,100,10.36,CA,1681587148
409,morozovsk,48.3539,48.3539,40.48,63,100,8.61,RU,1681587171
410,huangchuan,32.1272,32.1272,63.09,68,0,5.44,CN,1681587171
411,kamenka,51.3223,51.3223,35.47,59,74,6.87,RU,1681587171
412,esperance,-33.8667,-33.8667,62.64,77,100,18.1,AU,1681587171
413,antofagasta,-23.65,-23.65,67.28,75,17,10.78,CL,1681587171
414,shubarshi,48.5872,48.5872,27.5,95,100,25.55,KZ,1681587171
415,iracoubo,5.4802,5.4802,79.41,83,100,10.6,GF,1681587171
416,idlib,35.9306,35.9306,58.51,48,96,3.49,SY,1681587172
417,mezen,65.8522,65.8522,15.6,99,32,3.18,RU,1681587172
418,liepaja,56.5419,56.5419,51.78,50,0,6.91,LV,1681587172
419,jhalida,23.3667,23.3667,86.13,17,63,3.53,IN,1681587172
420,germantown,39.1732,39.1732,77.63,69,75,4.61,US,1681586617
421,namatanai,-3.6667,-3.6667,79.09,80,100,6.98,PG,1681587172
422,cairo,30.0626,30.0626,70.56,56,0,11.5,EG,1681586951
423,changli,39.7042,39.7042,48.78,32,0,8.1,CN,1681587173
424,cabo san lucas,22.8909,22.8909,79.61,56,0,0.0,MX,1681587017
425,benghazi,32.1167,32.1167,61.9,63,99,13.69,LY,1681587173
426,kayerkan,69.3497,69.3497,-23.12,90,11,4.99,RU,1681587173
427,saint-ambroise,48.5501,48.5501,66.74,23,2,4.61,CA,1681587173
428,saint-joseph,-21.3667,-21.3667,75.58,84,17,4.38,RE,1681587173
429,dukhovshchina,55.1919,55.1919,37.98,49,100,9.98,RU,1681587173
430,comodoro rivadavia,-45.8667,-45.8667,64.26,17,0,12.66,AR,1681587173
431,bara,10.3744,10.3744,89.47,18,87,6.64,NG,1681587174
432,solano,38.2333,38.2333,66.43,58,0,12.66,US,1681587174
433,pervoye maya,56.164,56.164,33.01,51,3,3.44,RU,1681587174
434,apt,43.8833,43.8833,48.76,75,84,19.35,FR,1681587174
435,cuiluan,47.72,47.72,32.09,64,61,4.09,CN,1681587174
436,sao francisco,-15.9486,-15.9486,94.44,28,90,6.53,BR,1681587174
437,komsomolskiy,40.4272,40.4272,65.12,45,75,4.61,UZ,1681587175
438,anloga,5.7947,5.7947,82.94,82,71,14.34,GH,1681587175
439,boyuibe,-20.4167,-20.4167,64.02,86,100,4.72,BO,1681587175
440,ginir,7.1333,7.1333,58.68,86,17,2.82,ET,1681587175
441,pacific grove,36.6177,36.6177,66.22,74,0,10.0,US,1681587119
442,taoudenni,22.6783,22.6783,88.5,6,0,8.19,ML,1681587175
443,senneterre,48.3835,48.3835,66.34,70,75,3.4,CA,1681587175
444,nyuksenitsa,60.4128,60.4128,27.01,93,8,4.16,RU,1681587176
445,san cristobal,7.7669,7.7669,80.78,39,99,4.05,VE,1681587176
446,celestun,20.8667,20.8667,88.38,58,0,9.62,MX,1681587176
447,muroto,33.2833,33.2833,62.06,83,84,4.7,JP,1681587176
448,ulaangom,49.9811,49.9811,32.76,69,92,1.34,MN,1681587176
449,san miguel,13.4833,13.4833,100.0,30,20,2.3,SV,1681587177
450,bria,6.5423,6.5423,74.7,76,96,1.43,CF,1681587177
451,at-bashi,41.1702,41.1702,47.43,83,100,4.41,KG,1681587177
452,linjiang,41.8069,41.8069,37.11,96,48,1.81,CN,1681587177
453,grindavik,63.8424,63.8424,48.15,71,75,19.57,IS,1681587177
454,krasnoselkup,65.7,65.7,-15.0,98,99,11.48,RU,1681587177
455,ketchikan,55.3422,55.3422,43.27,81,100,16.11,US,1681587177
456,vila velha,-20.3297,-20.3297,78.94,83,75,6.91,BR,1681587178
457,alghero,40.5589,40.5589,59.09,55,20,16.11,IT,1681587178
458,singaraja,-8.112,-8.112,79.0,84,47,2.93,ID,1681587178
459,honiton,50.7996,50.7996,51.1,78,0,5.75,GB,1681587178
460,nouadhibou,20.931,20.931,69.78,83,40,8.05,MR,1681587178
461,hambantota,6.1241,6.1241,79.57,80,11,4.81,LK,1681587178
462,sao joao da barra,-21.6403,-21.6403,89.69,86,26,8.9,BR,1681587178
463,lewiston,44.1003,44.1003,72.05,37,0,8.05,US,1681587178
464,marathon,44.9,44.9,80.13,34,20,17.27,US,1681587179
465,haputale,6.7681,6.7681,62.06,87,97,1.41,LK,1681587179
466,alofi,-19.0595,-19.0595,73.29,88,75,2.3,NU,1681587179
467,rio grande,-32.035,-32.035,69.91,66,100,11.9,BR,1681587179
468,movila,44.55,44.55,59.52,61,53,5.55,RO,1681587179
469,severnyy,50.677,50.677,41.04,70,0,13.42,RU,1681587180
470,prince rupert,54.3161,54.3161,44.69,75,75,25.32,CA,1681587032
471,shumikha,55.2261,55.2261,27.61,29,3,3.89,RU,1681587180
472,roma,43.2128,43.2128,82.54,28,0,0.0,US,1681587156
473,sao luiz gonzaga,-28.4083,-28.4083,78.08,55,63,11.39,BR,1681587180
474,cockburn town,21.4612,21.4612,78.28,81,67,19.77,TC,1681587180
475,mount isa,-20.7333,-20.7333,65.97,82,100,13.8,AU,1681587181
476,ayan,56.45,56.45,22.53,95,100,8.79,RU,1681587181
477,revda,56.801,56.801,26.37,77,52,3.47,RU,1681587181
478,lyubytino,58.8122,58.8122,35.6,61,100,7.11,RU,1681587181
479,ambon,-3.6954,-3.6954,73.54,94,20,8.05,ID,1681587181
480,douglas,41.3,41.3,40.93,86,100,23.02,US,1681587035
481,bell ville,-32.6259,-32.6259,69.8,41,99,5.5,AR,1681587182
482,muyezerskiy,63.9333,63.9333,23.18,97,38,3.06,RU,1681587182
483,maniitsoq,65.4167,65.4167,31.14,76,12,7.63,GL,1681587182
484,berkak,62.825,62.825,36.97,87,100,6.24,NO,1681587183
485,nkhata bay,-11.6066,-11.6066,72.86,88,100,6.31,MW,1681587183
486,gawler,-34.6,-34.6,52.16,94,73,11.56,AU,1681587183
487,sonqor,34.7837,34.7837,46.96,54,58,1.7,IR,1681587183
488,katubao,5.8892,5.8892,80.26,83,75,3.0,PH,1681587184
489,quatre cocos,-20.2078,-20.2078,77.11,82,76,5.82,MU,1681587184
490,ambilobe,-13.2,-13.2,72.81,93,13,3.51,MG,1681587185
491,rodrigues alves,-7.738,-7.738,88.0,85,90,5.82,BR,1681587185
492,alice springs,-23.7,-23.7,47.75,100,9,6.91,AU,1681587185
493,dmytrivka,45.9717,45.9717,52.99,87,33,6.93,UA,1681587185
494,wad madani,14.4012,14.4012,92.75,11,8,10.42,SD,1681587185
495,northam,51.0333,51.0333,49.6,82,100,2.08,GB,1681587186
496,launceston,-41.45,-41.45,56.61,94,75,8.05,AU,1681587186
497,gat,31.61,31.61,68.4,100,0,2.66,IL,1681587184
498,fairbanks,64.8378,64.8378,28.81,56,20,5.75,US,1681587000
499,kautokeino,69.0125,69.0125,23.49,97,43,10.42,NO,1681587186
500,omboue,-1.5746,-1.5746,77.9,87,100,5.73,GA,1681587186
501,zonguldak,41.25,41.25,54.68,72,100,3.83,TR,1681587187
502,hailar,49.2,49.2,34.79,46,96,2.98,CN,1681587154
503,huarmey,-10.0681,-10.0681,79.83,73,98,6.31,PE,1681587187
504,lasa,46.6166,46.6166,42.37,91,54,6.67,IT,1681587187
505,gobabis,-22.45,-22.45,66.6,50,88,8.14,NA,1681587187
506,yukon,35.5067,35.5067,65.66,48,0,25.32,US,1681587017
507,la union,-5.4,-5.4,86.14,59,100,5.93,PE,1681587188
508,smithers,54.7804,54.7804,46.72,53,75,5.75,CA,1681587188
509,zlobin,45.2924,45.2924,43.59,81,75,13.8,HR,1681587188
510,kewanee,41.2456,41.2456,75.58,74,100,7.83,US,1681586680
511,sinop,41.7711,41.7711,56.44,74,100,0.85,TR,1681587190
512,inhuma,-6.6683,-6.6683,86.29,50,100,2.59,BR,1681587190
513,sidney,-33.8679,-33.8679,67.77,73,0,4.61,AU,1681586932
514,portland,45.5234,45.5234,55.09,73,100,7.0,US,1681586542
515,melfort,52.8667,52.8667,48.33,57,5,5.75,CA,1681587192
516,tigzirt,36.8886,36.8886,58.96,66,11,8.41,DZ,1681587192
517,evensk,61.95,61.95,18.79,69,100,15.86,RU,1681587192
518,tigil,57.8,57.8,31.51,78,100,9.64,RU,1681587193
519,tupik,54.4253,54.4253,16.21,98,85,1.83,RU,1681587193
520,garissa,-0.4536,-0.4536,80.28,74,98,15.86,KE,1681587193
521,hofn,64.2539,64.2539,43.57,80,61,3.15,IS,1681587118
522,chitral,35.8462,35.8462,56.1,90,100,1.23,PK,1681587193
523,kodinsk,58.6881,58.6881,-0.99,99,19,0.4,RU,1681587194
524,biak,-0.9131,-0.9131,76.69,85,77,0.2,ID,1681587197
525,bulgan,48.8125,48.8125,42.1,65,100,3.0,MN,1681587198
526,la palma,33.8464,33.8464,77.81,58,0,6.91,US,1681587198
527,gheorghe lazar,44.6333,44.6333,59.9,55,50,5.84,RO,1681587198
528,oktyabrskiy,54.4815,54.4815,31.68,51,5,4.9,RU,1681587198
529,malindi,-3.2175,-3.2175,84.36,74,40,4.61,KE,1681587198
530,pangnirtung,66.1451,66.1451,19.4,86,0,10.36,CA,1681587199
531,vilcun,-38.65,-38.65,68.74,23,4,7.11,CL,1681587200
532,san patricio,28.017,28.017,93.16,37,0,5.46,US,1681587200
533,fare,-16.7,-16.7,81.03,75,50,9.51,PF,1681587200
534,cortez,37.3489,37.3489,51.03,23,0,14.97,US,1681587200
535,diamantino,-14.4086,-14.4086,81.86,81,94,3.87,BR,1681587200
536,muravlenko,63.7898,63.7898,-4.38,91,86,14.07,RU,1681587201
537,bathsheba,13.2167,13.2167,84.81,61,40,19.57,BB,1681587201
538,san carlos de bariloche,-41.1456,-41.1456,60.55,13,0,2.3,AR,1681587156
539,lobito,-12.3481,-12.3481,80.78,82,64,4.21,AO,1681587201
540,antalya,36.7741,36.7741,61.09,76,75,4.61,TR,1681586989
541,kisanga,-7.4362,-7.4362,72.63,96,77,1.86,TZ,1681587202
542,senador jose porfirio,-2.5908,-2.5908,84.52,72,70,0.22,BR,1681587202
543,tharad,24.3961,24.3961,80.94,60,0,11.16,IN,1681587202
544,cabedelo,-6.9811,-6.9811,83.07,79,100,10.09,BR,1681587202
545,kirakira,-10.4544,-10.4544,75.76,91,100,4.25,SB,1681587202
